[
    {
        "id": 7739683,
        "name": "Sítio Santa Joana",
        "state": "",
        "country": "BR",
        "coord": {
          "lon": -50.086201,
          "lat": -23.0438
        }
      },
      {
        "id": 7739883,
        "name": "Sítio Leôncio Corsine",
        "state": "",
        "country": "BR",
        "coord": {
          "lon": -50.106499,
          "lat": -23.2439
        }
      },
      {
        "id": 7740327,
        "name": "Sítio Santo Antônio",
        "state": "",
        "country": "BR",
        "coord": {
          "lon": -49.760818,
          "lat": -23.177299
        }
      },
      {
        "id": 7741544,
        "name": "Gangkou",
        "state": "",
        "country": "CN",
        "coord": {
          "lon": 114.201942,
          "lat": 29.43996
        }
      },
      {
        "id": 7741545,
        "name": "Qingshan",
        "state": "",
        "country": "CN",
        "coord": {
          "lon": 114.019279,
          "lat": 29.438881
        }
      },
      {
        "id": 7741546,
        "name": "Honggangshan",
        "state": "",
        "country": "CN",
        "coord": {
          "lon": 114.868607,
          "lat": 29.51878
        }
      },
      {
        "id": 7741547,
        "name": "Fushan",
        "state": "",
        "country": "CN",
        "coord": {
          "lon": 114.31131,
          "lat": 29.866301
        }
      },
      {
        "id": 7741548,
        "name": "Guihua",
        "state": "",
        "country": "CN",
        "coord": {
          "lon": 114.34465,
          "lat": 29.71785
        }
      },
      {
        "id": 7741549,
        "name": "Damu",
        "state": "",
        "country": "CN",
        "coord": {
          "lon": 114.539124,
          "lat": 29.808769
        }
      },
      {
        "id": 7741550,
        "name": "Xiangyanghu",
        "state": "",
        "country": "CN",
        "coord": {
          "lon": 114.16391,
          "lat": 29.90554
        }
      },
      {
        "id": 7741551,
        "name": "Dalu",
        "state": "",
        "country": "CN",
        "coord": {
          "lon": 114.431793,
          "lat": 29.59938
        }
      },
      {
        "id": 7741552,
        "name": "Jiugongshan",
        "state": "",
        "country": "CN",
        "coord": {
          "lon": 114.681396,
          "lat": 29.518801
        }
      },
      {
        "id": 7741553,
        "name": "Tongzhong",
        "state": "",
        "country": "CN",
        "coord": {
          "lon": 114.106071,
          "lat": 29.475889
        }
      },
      {
        "id": 7741555,
        "name": "Baini",
        "state": "",
        "country": "CN",
        "coord": {
          "lon": 114.129448,
          "lat": 29.53495
        }
      },
      {
        "id": 7741556,
        "name": "Chuangwang",
        "state": "",
        "country": "CN",
        "coord": {
          "lon": 114.619377,
          "lat": 29.49538
        }
      },
      {
        "id": 7741557,
        "name": "Wangying",
        "state": "",
        "country": "CN",
        "coord": {
          "lon": 114.828552,
          "lat": 29.8041
        }
      },
      {
        "id": 7741558,
        "name": "Gaojian",
        "state": "",
        "country": "CN",
        "coord": {
          "lon": 114.06778,
          "lat": 29.278669
        }
      },
      {
        "id": 7741741,
        "name": "Wansuigong",
        "state": "",
        "country": "CN",
        "coord": {
          "lon": 120.984306,
          "lat": 32.077209
        }
      },
      {
        "id": 7741770,
        "name": "Dongfang Sizu",
        "state": "",
        "country": "CN",
        "coord": {
          "lon": 121.380241,
          "lat": 32.12682
        }
      },
      {
        "id": 7742769,
        "name": "Harian",
        "state": "",
        "country": "ID",
        "coord": {
          "lon": 98.662498,
          "lat": 2.5561
        }
      },
      {
        "id": 7743546,
        "name": "Tigarunggu",
        "state": "",
        "country": "ID",
        "coord": {
          "lon": 98.722603,
          "lat": 2.8965
        }
      },
      {
        "id": 7743637,
        "name": "Sipintuangin",
        "state": "",
        "country": "ID",
        "coord": {
          "lon": 98.790398,
          "lat": 2.8133
        }
      },
      {
        "id": 7743784,
        "name": "Sarimatondang",
        "state": "",
        "country": "ID",
        "coord": {
          "lon": 98.915497,
          "lat": 2.8641
        }
      },
      {
        "id": 7743873,
        "name": "Pane Tongah",
        "state": "",
        "country": "ID",
        "coord": {
          "lon": 98.972298,
          "lat": 2.9059
        }
      },
      {
        "id": 7744976,
        "name": "Al Farāfirah",
        "state": "",
        "country": "SY",
        "coord": {
          "lon": 37.1595,
          "lat": 36.202221
        }
      },
      {
        "id": 7745040,
        "name": "Xinwan",
        "state": "",
        "country": "CN",
        "coord": {
          "lon": 114.453529,
          "lat": 29.19331
        }
      },
      {
        "id": 7745041,
        "name": "Shanghang",
        "state": "",
        "country": "CN",
        "coord": {
          "lon": 114.437637,
          "lat": 29.106859
        }
      },
      {
        "id": 7745043,
        "name": "Shangtang",
        "state": "",
        "country": "CN",
        "coord": {
          "lon": 114.641502,
          "lat": 29.31303
        }
      },
      {
        "id": 7745044,
        "name": "Zhuping",
        "state": "",
        "country": "CN",
        "coord": {
          "lon": 114.474823,
          "lat": 29.01162
        }
      },
      {
        "id": 7745046,
        "name": "Quanfeng",
        "state": "",
        "country": "CN",
        "coord": {
          "lon": 114.070137,
          "lat": 29.12879
        }
      }
]